name,lat,lon,pop
Ames Research Center,37.408769,-122.064454, 5
North Carolina Space Grant Consortium ,35.784547,-78.676478, 10
Airspace Operations and Safety Program,39.509472,-84.733804,4
Langley Research Center,37.078133,-76.373929,2
Lyndon B. Johnson Space Center,29.551933,-95.092061,10
John F. Kennedy Space Center,28.572886,-80.648605,3
Goddard Space Flight Center,38.991227,-76.852239,5
Jet Propulsion Lab,35.136056,-104.583457,8